City,Country,Latitude,Longitude,Max_Temperature(F),Humidity(%),Windspeed(mph),Cloudiness(%),Date
saint anthony,US,45.02,-93.22,48.0,56,4.43,1,1604367836
albany,US,42.6,-73.97,36.0,67,3.0,98,1604368120
ambilobe,MG,-13.2,49.05,67.32,78,4.56,0,1604368121
anadyr,RU,64.75,177.48,19.4,92,6.71,75,1604367843
rio grande,BR,-32.03,-52.1,60.01,92,3.0,1,1604368122
alta floresta,BR,-9.88,-56.09,70.88,94,1.14,70,1604368122
clyde river,CA,70.47,-68.59,17.6,92,8.05,75,1604368123
atuona,PF,-9.8,-139.03,77.95,73,17.38,1,1604368124
tiksi,RU,71.69,128.87,4.59,93,2.51,100,1604368124
cape town,ZA,-33.93,18.42,64.0,88,8.05,0,1604368125
barrow,US,71.29,-156.79,28.4,68,21.92,90,1604368125
ordu,TR,40.91,37.68,57.2,100,2.24,75,1604368126
alexandria,EG,31.22,29.96,71.6,56,9.17,40,1604368127
luanda,AO,-8.84,13.23,78.8,83,5.82,75,1604368127
ushuaia,AR,-54.8,-68.3,48.2,87,9.17,0,1604368093
cherskiy,RU,68.75,161.3,-4.0,90,9.51,100,1604368128
chardara,KZ,41.25,67.97,48.07,47,6.06,0,1604368129
airai,TL,-8.93,125.41,79.61,36,4.97,92,1604368129
vrangel,RU,42.73,133.08,38.5,65,16.51,50,1604368130
camacha,PT,33.08,-16.33,69.8,77,8.05,40,1604368131
husavik,IS,66.04,-17.34,35.6,93,20.8,90,1604368131
rawson,AR,-43.3,-65.1,75.11,29,20.02,100,1604368132
portland,US,45.52,-122.68,57.99,73,1.34,99,1604368195
nikolskoye,RU,59.7,30.79,45.0,81,11.18,75,1604368133
sao filipe,CV,14.9,-24.5,80.46,57,5.08,88,1604368134
tuktoyaktuk,CA,69.45,-133.04,5.0,84,10.29,75,1604368134
rikitea,PF,-23.12,-134.97,71.87,80,17.49,10,1604368135
porto velho,BR,-8.76,-63.9,77.0,83,4.7,90,1604368135
port alfred,ZA,-33.59,26.89,65.5,86,17.74,2,1604368136
margate,GB,51.38,1.39,51.01,80,3.0,0,1604368136
hobart,AU,-42.88,147.33,82.99,38,11.41,0,1604367903
tall kayf,TR,37.08,41.07,59.61,50,6.29,100,1604368138
tasiilaq,GL,65.61,-37.64,33.8,40,6.93,0,1604368138
bethel,US,41.37,-73.41,37.0,47,6.93,1,1604368139
dikson,RU,73.51,80.55,14.11,94,11.01,99,1604368139
port keats,AU,-14.25,129.55,92.37,46,10.51,59,1604368140
borogontsy,RU,62.67,131.17,-5.08,89,5.37,57,1604368141
kapaa,US,22.08,-159.32,82.4,74,5.82,20,1604368068
awjilah,LY,29.11,21.29,60.96,73,8.7,0,1604368142
puerto ayora,EC,-0.74,-90.35,69.01,96,7.0,96,1604367953
bengkulu,ID,-3.8,102.27,78.19,83,3.09,98,1604368143
butaritari,KI,3.07,172.79,81.19,75,16.46,0,1604368143
lahad datu,MY,5.03,118.33,81.75,85,5.12,100,1604368144
mahebourg,MU,-20.41,57.7,71.6,73,10.29,75,1604368145
santa lucia,ES,27.91,-15.54,71.6,68,16.11,75,1604368145
longyearbyen,SJ,78.22,15.64,32.0,95,43.62,75,1604368008
arraial do cabo,BR,-22.97,-42.03,68.23,59,3.98,11,1604368146
mataura,NZ,-46.19,168.86,67.73,37,4.76,0,1604368147
magdalena,PH,14.2,121.43,89.01,74,5.82,20,1604368147
castro,BR,-24.79,-50.01,51.4,95,7.99,45,1604368148
bambous virieux,MU,-20.34,57.76,71.6,73,10.29,75,1604368149
benghazi,LY,32.12,20.07,69.66,63,9.37,1,1604368149
bathsheba,BB,13.22,-59.52,80.6,78,19.46,20,1604368150
kpandae,GH,8.47,-0.01,76.64,78,3.74,0,1604368150
qaqortoq,GL,60.72,-46.03,26.6,53,3.36,92,1604368151
kibala,TD,9.11,18.35,75.2,88,0.94,0,1604368151
punta arenas,CL,-53.15,-70.92,50.0,53,4.7,0,1604368152
saldanha,ZA,-33.01,17.94,66.2,68,3.36,69,1604368152
gairo,IT,39.85,9.5,62.6,88,4.7,20,1604368153
basse,DE,52.55,9.51,54.0,76,13.87,20,1604368154
cayenne,GF,4.93,-52.33,77.0,100,11.56,90,1604368154
cidreira,BR,-30.18,-50.21,62.2,76,6.55,4,1604368155
mandalgovi,MN,45.76,106.27,29.21,73,9.89,1,1604368155
new sibonga,PH,7.56,125.93,84.2,70,3.36,75,1604368156
mar del plata,AR,-38.0,-57.56,60.01,87,6.93,0,1604367900
bredasdorp,ZA,-34.53,20.04,64.4,88,11.41,98,1604368157
busselton,AU,-33.65,115.33,69.01,49,10.16,68,1604368158
jiuquan,CN,39.74,98.52,45.64,46,4.63,33,1604368158
port hardy,CA,50.7,-127.42,50.0,100,24.16,90,1604368159
ulladulla,AU,-35.35,150.47,71.01,49,5.82,20,1604368159
mareeba,AU,-17.0,145.43,88.0,50,8.99,5,1604368160
faanui,PF,-16.48,-151.75,80.01,78,17.87,1,1604368160
palmer,US,42.16,-72.33,33.8,50,6.93,40,1604368161
qaanaaq,GL,77.48,-69.36,9.25,80,5.17,100,1604368162
vaini,TO,-21.2,-175.2,77.0,88,11.41,75,1604368162
namibe,AO,-15.2,12.15,68.04,79,6.58,99,1604368163
chokurdakh,RU,70.63,147.92,-13.09,87,9.8,30,1604368163
yellowknife,CA,62.46,-114.35,10.4,85,10.29,90,1604368145
iralaya,HN,15.0,-83.23,79.52,89,49.35,100,1604368164
wadi musa,JO,30.32,35.48,52.68,92,2.13,6,1604368165
nemuro,JP,43.32,145.57,53.6,62,3.36,20,1604368165
poya,NC,-21.35,165.15,84.11,53,7.52,100,1604368166
hailey,US,43.52,-114.32,51.8,29,3.74,5,1604368167
hermanus,ZA,-34.42,19.23,64.0,86,10.0,13,1604368167
pangnirtung,CA,66.15,-65.71,17.02,83,12.59,100,1604368168
port macquarie,AU,-31.43,152.92,77.0,40,1.99,30,1604368168
chuy,UY,-33.7,-53.46,56.39,92,6.31,0,1604368169
tilichiki,RU,60.47,166.1,32.76,98,3.67,100,1604368169
hasaki,JP,35.73,140.83,61.0,100,6.93,75,1604368170
thompson,CA,55.74,-97.86,21.2,92,9.17,90,1604367901
nanortalik,GL,60.14,-45.24,36.12,79,13.18,99,1604368171
bluff,NZ,-46.6,168.33,52.97,67,5.03,0,1604368172
guerrero negro,MX,27.98,-114.06,70.05,73,13.47,3,1604368172
nacimiento,CL,-37.5,-72.67,56.34,80,2.95,15,1604368173
nicoya,CR,10.15,-85.45,77.0,100,3.36,75,1604368173
roma,US,43.21,-75.46,35.01,80,3.36,90,1604368174
karratha,AU,-20.74,116.85,86.61,24,3.36,0,1604368175
geraldton,AU,-28.77,114.6,66.2,82,9.17,90,1604368175
dandong,CN,40.13,124.39,36.48,61,15.01,0,1604368176
isangel,VU,-19.55,169.27,84.2,74,11.41,75,1604368176
katsuura,JP,35.13,140.3,66.0,76,3.0,100,1604368177
kosh-agach,RU,50.0,88.67,16.2,82,1.57,82,1604368177
mattru,SL,7.62,-11.83,73.51,95,0.63,0,1604368178
flinders,AU,-34.58,150.86,73.99,63,5.01,0,1604368179
dalmatovo,RU,56.26,62.94,25.77,96,4.45,0,1604368179
hualmay,PE,-11.1,-77.61,60.46,85,3.47,47,1604368180
matagami,CA,49.75,-77.63,23.0,92,12.75,90,1604368180
herat,AF,34.5,62.0,44.6,30,7.27,0,1604368181
lavrentiya,RU,65.58,-171.0,21.16,87,3.31,31,1604368181
nantucket,US,41.28,-70.1,37.99,44,25.28,1,1604368147
beyneu,KZ,45.32,55.2,50.59,44,16.37,31,1604368183
sungairaya,ID,0.7,108.9,85.46,69,7.2,74,1604368183
broome,US,42.25,-75.83,37.0,93,10.29,90,1604368184
victoria,HK,22.29,114.16,73.99,68,1.99,7,1604367953
caravelas,BR,-17.71,-39.25,72.14,74,13.15,100,1604368185
bubaque,GW,11.28,-15.83,83.43,75,11.97,0,1604368185
ribeira grande,PT,38.52,-28.7,62.37,65,16.82,99,1604368186
bithur,IN,26.63,80.28,59.0,72,5.17,0,1604368186
avarua,CK,-21.21,-159.78,75.2,69,24.16,100,1604368187
arlit,NE,18.74,7.39,73.0,22,7.61,0,1604368188
hami,CN,42.8,93.45,45.3,51,3.91,0,1604368188
marzuq,YE,14.4,46.47,57.33,36,1.63,0,1604368189
ponta do sol,PT,32.67,-17.1,69.8,73,16.11,75,1604368189
shache,CN,38.42,77.24,36.75,69,0.72,37,1604368190
kimbe,PG,-5.55,150.14,85.32,77,4.41,100,1604368190
miles city,US,46.41,-105.84,62.6,29,5.82,1,1604368191
abu dhabi,AE,24.47,54.37,75.2,78,2.24,0,1604368156
mount gambier,AU,-37.83,140.77,84.2,32,18.34,100,1604368192
lompoc,US,34.64,-120.46,60.8,82,8.05,1,1604368193
jamestown,US,42.1,-79.24,37.99,59,19.46,1,1604368193
tabuk,PH,17.42,121.44,76.5,84,8.16,99,1604368194
soria,ES,41.67,-2.67,48.0,95,1.34,99,1604368194
hamilton,US,39.18,-84.53,42.01,35,8.05,75,1604367902
huatulco,MX,15.84,-96.33,80.6,74,4.79,20,1604368195
poum,NC,-20.23,164.02,77.74,76,7.58,100,1604368196
kununurra,AU,-15.77,128.73,98.6,30,5.82,1,1604368102
dongsheng,CN,39.82,109.98,37.04,61,7.2,0,1604368197
barra,BR,-11.09,-43.14,73.09,87,3.04,100,1604368198
kodiak,US,57.79,-152.41,28.4,46,17.22,1,1604367981
avera,US,33.19,-82.53,42.8,87,1.86,1,1604368199
plattsburgh,US,44.7,-73.45,36.0,68,6.93,90,1604368199
kiama,AU,-34.68,150.87,73.99,62,8.01,0,1604368200
manokwari,ID,-0.87,134.08,82.24,72,4.36,100,1604368201
buarcos,PT,40.17,-8.88,57.99,71,16.11,0,1604368201
touros,BR,-5.2,-35.46,78.8,83,4.7,40,1604368202
molochnoye,RU,59.29,39.68,36.34,94,10.71,100,1604368202
hilo,US,19.73,-155.09,82.4,69,6.93,90,1604368203
khatanga,RU,71.97,102.5,8.22,95,7.74,100,1604368204
carnarvon,AU,-24.87,113.63,73.4,43,18.34,1,1604368204
trairi,BR,-3.28,-39.27,79.5,80,10.6,0,1604368205
braganca,BR,-1.05,-46.77,76.01,91,2.19,0,1604368205
lebowakgomo,ZA,-24.2,29.5,62.6,82,6.93,0,1604368206
lebu,CL,-37.62,-73.65,50.83,92,11.34,21,1604368207
cooma,AU,-36.23,149.13,66.2,52,4.7,0,1604368207
khuzhir,RU,53.19,107.34,28.08,91,0.45,100,1604368208
seydi,TM,39.48,62.91,48.42,42,10.56,0,1604368208
upernavik,GL,72.79,-56.15,16.38,91,7.49,95,1604368209
port blair,IN,11.67,92.75,82.56,74,6.62,37,1604368089
farmington,US,36.73,-108.22,62.6,21,3.36,1,1604368086
tuatapere,NZ,-46.13,167.68,58.33,56,6.29,0,1604368211
port elizabeth,ZA,-33.92,25.57,64.4,88,12.75,0,1604368211
san cristobal,VE,7.77,-72.22,67.77,92,1.95,99,1604368212
stornoway,GB,58.21,-6.39,37.4,93,3.36,78,1604368212
sinjar,IQ,36.32,41.88,58.71,52,6.62,21,1604368213
koulikoro,ML,14.0,-7.75,73.44,25,4.68,25,1604368213
interlaken,US,36.95,-121.73,73.4,82,5.82,1,1604368214
banjar,ID,-8.19,114.97,89.58,44,2.73,49,1604368214
lagoa,PT,39.05,-27.98,62.26,63,13.65,100,1604368215
santa isabel do rio negro,BR,-0.41,-65.02,77.99,79,2.21,69,1604368216
katsina,NG,12.99,7.6,75.43,26,9.08,100,1604368216
korla,CN,41.76,86.15,43.0,45,5.01,0,1604368092
saskylakh,RU,71.92,114.08,9.45,95,8.75,100,1604368217
payakumbuh,ID,-0.22,100.63,74.59,83,2.26,100,1604368218
jalu,LY,29.03,21.55,60.96,71,8.34,0,1604368219
coahuayana,MX,18.73,-103.68,80.6,57,0.63,5,1604368219
thunder bay,CA,48.4,-89.32,41.0,60,8.05,20,1604368220
norman wells,CA,65.28,-126.83,8.6,92,2.24,90,1604368220
la ronge,CA,55.1,-105.28,39.2,69,2.24,0,1604368221
saint-philippe,RE,-21.36,55.77,68.0,60,6.93,75,1604368221
markova,UA,48.68,24.41,47.46,88,2.28,100,1604368222
vestmannaeyjar,IS,63.44,-20.27,43.0,72,31.09,100,1604368223
malartic,CA,48.13,-78.13,26.6,92,8.05,90,1604368223
ginir,ET,7.13,40.7,53.22,65,4.68,0,1604368224
kuhdasht,IR,33.53,47.61,48.07,44,1.43,62,1604368224
akdepe,TM,42.06,59.38,39.2,44,9.17,0,1604368225
alice springs,AU,-23.7,133.88,95.0,8,8.05,0,1604368023
buchanan,LR,5.88,-10.05,77.22,88,4.16,0,1604368226
zacapu,MX,19.83,-101.72,69.8,60,2.95,5,1604368227
tshikapa,CD,-6.42,20.8,69.71,94,0.07,19,1604368227
urengoy,RU,65.97,78.37,19.11,97,10.54,97,1604368228
tura,IN,25.52,90.22,75.54,84,1.39,97,1604368228
acarau,BR,-2.89,-40.12,79.05,84,9.71,8,1604368229
coquimbo,CL,-29.95,-71.34,53.6,87,4.7,9,1604368062
pisco,PE,-13.7,-76.22,64.4,82,11.41,90,1604368230
ushirombo,TZ,-3.49,31.96,68.0,68,3.15,71,1604368230
esperance,AU,-33.87,121.9,59.0,100,17.22,75,1604368231
ures,MX,29.43,-110.4,82.99,24,4.92,0,1604368232
waingapu,ID,-9.66,120.26,87.39,61,10.71,83,1604368232
los llanos de aridane,ES,28.66,-17.92,71.6,78,14.99,0,1604368233
sinnamary,GF,5.38,-52.95,77.63,87,9.01,84,1604368233
zvishavane,ZW,-20.33,30.07,68.14,72,3.06,100,1604368234
mayo,US,38.89,-76.51,43.0,41,3.36,1,1604368234
belmonte,BR,-15.86,-38.88,69.8,88,8.05,90,1604368235
livingston,GB,55.9,-3.52,43.0,93,17.22,75,1604368236
sovetskiy,RU,61.36,63.58,25.23,96,6.33,25,1604368236
kaliua,TZ,-5.06,31.79,70.52,49,4.74,89,1604368237
oistins,BB,13.07,-59.53,80.6,78,19.46,20,1604368237
thinadhoo,MV,0.53,72.93,83.08,72,6.04,84,1604368238
san vicente,AR,-26.62,-54.13,60.42,64,2.82,41,1604368238
grindavik,IS,63.84,-22.43,41.0,86,21.92,75,1604368239
dobeln,DE,51.12,13.12,59.0,84,4.0,76,1604368240
nishihara,JP,26.18,127.76,77.0,83,16.11,90,1604368240
sovetskoye,RU,52.29,85.41,32.88,97,7.92,100,1604368241
jurm,AF,36.86,70.83,37.4,49,2.04,0,1604368241
zhigansk,RU,66.77,123.37,2.17,90,18.72,100,1604368242
acurenam,GQ,1.03,10.65,67.21,98,0.31,100,1604368243
new norfolk,AU,-42.78,147.06,82.99,20,3.0,83,1604368243
vostok,RU,46.49,135.88,21.27,93,10.38,100,1604368244
dhidhdhoo,MV,6.88,73.1,82.22,68,3.24,2,1604368244
roald,NO,62.58,6.13,46.4,81,12.75,100,1604368245
tigil,RU,57.8,158.67,37.0,76,12.1,100,1604368245
tarragona,ES,41.13,1.25,63.0,88,5.82,90,1604368246
hithadhoo,MV,-0.6,73.08,83.25,71,7.96,100,1604368247
todos santos,MX,23.45,-110.22,80.01,64,3.06,39,1604368247
el cope,PA,8.62,-80.6,73.0,87,20.0,100,1604368248
shalakusha,RU,62.22,40.25,41.58,86,12.26,100,1604368248
atar,MR,20.52,-13.05,79.03,19,11.23,100,1604368249
dali,CN,25.7,100.18,60.6,86,3.65,86,1604368249
mount isa,AU,-20.73,139.5,100.4,13,16.11,0,1604368250
oriximina,BR,-1.77,-55.87,78.46,83,2.59,5,1604368250
sioux lookout,CA,50.1,-91.92,33.8,80,2.24,90,1604368251
pauini,BR,-7.71,-66.98,73.44,92,0.43,98,1604368252
lodeynoye pole,RU,60.73,33.55,44.76,82,16.89,100,1604368252
iqaluit,CA,63.75,-68.51,17.6,78,18.34,90,1604367988
east london,ZA,-33.02,27.91,65.95,86,12.39,23,1604368253
oranjemund,NA,-28.55,16.43,61.05,88,4.54,90,1604368254
huarmey,PE,-10.07,-78.15,60.62,84,5.73,84,1604368254
kahului,US,20.89,-156.47,89.6,55,19.46,40,1604368255
mezen,RU,65.85,44.24,35.42,87,16.67,100,1604368256
prado,BR,-17.34,-39.22,71.62,79,13.35,89,1604368256
auki,SB,-8.77,160.7,76.95,92,0.94,100,1604368257
shimoda,JP,34.67,138.95,64.4,93,8.05,40,1604368257
ljungby,SE,56.83,13.94,48.99,93,10.29,28,1604368258
asau,RO,46.43,26.4,46.99,91,4.07,100,1604368259
qurayyat,SA,31.33,37.34,60.8,93,16.11,40,1604368259
ferme-neuve,CA,46.7,-75.45,26.6,92,8.05,100,1604368260
yeppoon,AU,-23.13,150.73,80.6,51,10.29,75,1604368260
dwarka,IN,22.24,68.97,79.09,49,10.98,0,1604368261
pirovskoye,RU,57.63,92.27,29.35,97,8.12,99,1604368261
saint george,US,37.1,-113.58,68.0,29,1.52,1,1604368262
saint-pierre,RE,-21.34,55.48,68.0,60,6.93,75,1604368262
kruisfontein,ZA,-34.0,24.73,55.99,95,1.01,1,1604368263
santa rosa de aguan,HN,15.95,-85.72,79.72,85,20.58,100,1604368264
fort nelson,CA,58.81,-122.7,10.4,85,4.7,90,1604368264
torbay,CA,47.67,-52.73,60.01,100,23.04,90,1604368265
alpena,US,45.06,-83.43,43.0,56,9.17,1,1604368265
alofi,NU,-19.06,-169.92,78.8,83,20.8,92,1604368266
taoudenni,ML,22.68,-3.98,76.96,19,7.61,100,1604368267
follonica,IT,42.93,10.76,60.01,100,4.7,75,1604368267
puerto baquerizo moreno,EC,-0.9,-89.6,68.4,88,12.73,98,1604368268
kindu,CD,-2.95,25.95,68.27,93,1.39,100,1604368268
saint-joseph,RE,-21.37,55.62,68.0,60,6.93,75,1604368269
ovalle,CL,-30.6,-71.2,54.14,72,0.87,0,1604367994
rincon,US,32.3,-81.24,48.2,70,2.82,1,1604368270
acapulco,MX,16.86,-99.89,82.4,88,8.05,20,1604368008
pasighat,IN,28.07,95.33,74.43,81,0.09,21,1604368271
kosterevo,RU,55.93,39.61,38.21,96,4.79,9,1604368272
peringat,MY,6.03,102.28,80.6,78,5.82,20,1604368003
pekalongan,ID,-6.89,109.68,75.0,67,2.53,0,1604368273
kamaishi,JP,39.27,141.88,53.6,87,1.12,75,1604368273
vung tau,VN,10.35,107.08,80.1,78,5.28,98,1604368274
melito di porto salvo,IT,37.92,15.77,64.0,77,7.94,6,1604368275
souillac,MU,-20.52,57.52,71.6,73,10.29,75,1604368275
sunbury,AU,-37.58,144.73,84.0,36,20.8,0,1604368276
provideniya,RU,64.38,-173.3,30.2,68,8.95,75,1604368276
amapa,BR,1.0,-52.0,73.65,94,5.57,78,1604368277
berovo,MK,41.7,22.86,50.0,85,1.7,100,1604368277
sampit,ID,-2.53,112.95,85.48,66,3.18,100,1604368278
mayumba,GA,-3.43,10.66,76.91,89,4.5,99,1604368279
okhotsk,RU,59.38,143.3,32.07,95,27.13,100,1604368279
labuhan,ID,-6.88,112.21,84.16,69,5.44,100,1604368280
barguzin,RU,53.62,109.62,21.63,82,1.36,100,1604368280
deputatskiy,RU,69.3,139.9,-10.71,82,2.17,9,1604368281
fairview,US,40.81,-74.0,44.6,41,6.93,1,1604368281
malpe,IN,13.35,74.72,77.0,88,4.7,75,1604368282
lazaro cardenas,MX,17.96,-102.2,80.89,72,6.53,0,1604368283
toyooka,JP,35.53,134.83,57.2,82,4.7,20,1604368283
gisborne,NZ,-38.65,178.0,69.01,66,5.01,100,1604368284
kalabo,ZM,-14.97,22.68,73.54,44,2.17,93,1604368284
skelleftea,SE,64.75,20.95,45.0,93,8.05,0,1604368156
cabo san lucas,MX,22.89,-109.91,80.6,69,5.82,20,1604368041
te anau,NZ,-45.42,167.72,67.51,39,2.8,5,1604368286
pevek,RU,69.7,170.31,9.59,94,22.48,100,1604368287
georgetown,MY,5.41,100.34,80.6,83,3.36,20,1604368876
lorut,AM,40.94,44.77,44.92,84,3.29,100,1604368288
sorland,NO,67.67,12.69,46.15,77,31.05,100,1604368288
werda,BW,-25.27,23.28,69.85,62,15.12,100,1604368289
rantepao,ID,-2.97,119.9,82.35,52,3.42,97,1604368289
muravlenko,RU,63.79,74.52,12.43,96,11.14,0,1604368290
san patricio,US,28.02,-97.52,66.0,88,3.36,1,1604368282
yar-sale,RU,66.83,70.83,18.25,97,8.81,26,1604368879
tsumeb,NA,-19.23,17.72,71.76,51,7.14,66,1604368292
pamyat parizhskoy kommuny,RU,56.1,44.5,37.4,93,4.47,90,1604368292
nioki,CD,-2.72,17.68,71.06,91,1.23,100,1604368293
trogir,HR,43.51,16.25,57.2,71,3.36,0,1604368293
robertsport,LR,6.75,-11.37,79.23,83,5.86,0,1604368294
neepawa,CA,50.23,-99.47,50.0,53,14.99,75,1604368035
bikin,RU,46.82,134.26,28.71,86,9.84,100,1604368295
hofn,IS,64.25,-15.21,43.29,61,9.66,99,1604368296
laguna de perlas,NI,12.34,-83.67,77.09,85,15.23,100,1604368296
cap-aux-meules,CA,47.38,-61.86,39.2,80,31.09,100,1604368297
novita,CO,4.96,-76.61,74.43,91,1.1,74,1604368297
sao joao da barra,BR,-21.64,-41.05,67.5,68,9.55,46,1604368298
knysna,ZA,-34.04,23.05,59.0,100,4.7,90,1604368298
biak,ID,-0.91,122.88,83.64,56,3.38,100,1604368299
kaitangata,NZ,-46.28,169.85,61.0,67,8.01,0,1604368293
gizo,SB,-8.1,156.84,85.69,69,2.91,54,1604368300
kalevala,RU,65.2,31.17,48.18,82,20.13,100,1604368301
ust-ishim,RU,57.69,71.17,25.92,97,6.38,55,1604368301
kajaani,FI,64.23,27.73,46.4,93,19.46,75,1604368045
vanavara,RU,60.34,102.28,18.97,97,8.12,83,1604368302
rawlins,US,41.79,-107.24,48.2,29,9.17,1,1604368303
lethem,GY,3.38,-59.8,76.69,83,11.12,100,1604368303
severo-kurilsk,RU,50.68,156.12,43.77,88,29.51,100,1604368892
prabumulih,ID,-3.45,104.25,76.17,92,0.72,100,1604368305
cockburn town,TC,21.46,-71.14,82.72,81,15.28,100,1604368305
vuktyl,RU,63.86,57.31,24.93,97,10.33,54,1604368306
fortuna,US,40.6,-124.16,50.0,100,6.93,90,1604368302
beloha,MG,-25.17,45.05,67.15,82,11.61,0,1604368307
muli,MV,2.92,73.57,82.36,70,7.4,58,1604368308
luena,AO,-11.78,19.92,63.59,75,1.79,71,1604368308
lobito,AO,-12.35,13.55,76.44,85,4.85,90,1604368309
gigmoto,PH,13.78,124.39,84.94,70,3.2,100,1604368897
richmond,US,37.55,-77.46,44.6,45,11.41,1,1604368304
kaka,TM,37.35,59.61,58.87,31,5.77,100,1604368310
hauterive,FR,46.09,3.45,53.6,87,8.05,90,1604368311
monroe,US,43.15,-77.68,42.01,60,23.04,90,1604368166
oda,JP,35.18,132.5,59.0,82,5.82,20,1604368312
tautira,PF,-17.73,-149.15,84.2,70,21.92,20,1604368311
ibra,OM,22.69,58.53,57.4,36,3.06,0,1604368313
statesville,US,35.78,-80.89,43.0,44,4.7,1,1604368035
mitu,CO,1.2,-70.17,73.83,96,2.04,96,1604368201
siocon,PH,7.71,122.14,85.42,67,5.97,98,1604368315
sobolevo,RU,54.43,31.9,39.99,96,3.85,33,1604368315
impfondo,CG,1.64,18.07,69.69,98,1.74,100,1604368316
kualakapuas,ID,-3.01,114.39,84.97,71,2.82,98,1604368317
charters towers,AU,-20.1,146.27,88.45,32,13.27,0,1604368317
las palmas,ES,28.42,-14.01,69.8,83,10.29,40,1604368318
jawhar,SO,2.78,45.5,75.25,89,4.29,82,1604368318
minudasht,IR,37.23,55.37,64.62,38,1.86,85,1604368319
alekseyevka,RU,50.63,38.69,47.26,88,7.56,82,1604368319
namatanai,PG,-3.67,152.43,85.06,71,4.18,80,1604368320
balaipungut,ID,1.05,101.28,76.57,91,2.91,100,1604368050
dingle,PH,11.0,122.67,84.97,76,9.26,100,1604368911
grafton,US,42.21,-71.69,34.0,90,21.92,1,1604368322
libreville,GA,0.39,9.45,80.6,83,4.7,75,1604368251
williston,US,48.15,-103.62,55.0,53,9.15,0,1604368323
samarai,PG,-10.62,150.67,84.15,73,8.23,100,1604368323
yaan,NG,7.38,8.57,75.51,77,2.95,99,1604368324
jablah,SY,35.36,35.93,66.2,72,11.41,75,1604368324
ilulissat,GL,69.22,-51.1,19.4,57,27.51,100,1604368325
abhar,IR,36.15,49.22,51.21,41,1.57,74,1604368326
biltine,TD,14.53,20.92,81.57,23,20.69,75,1604368326
daru,PG,-9.08,143.21,85.3,72,14.23,100,1604368327
kholodnyy,RU,62.72,147.95,3.34,84,4.9,100,1604368327
talnakh,RU,69.49,88.4,12.2,85,2.24,40,1604368917
celestun,MX,20.87,-90.4,76.44,76,20.13,64,1604368328
eureka,US,40.8,-124.16,48.99,100,3.36,90,1604368165
sibolga,ID,1.74,98.78,83.75,62,1.36,100,1604368330
lucapa,AO,-8.42,20.74,64.96,98,1.68,54,1604368330
gornopravdinsk,RU,60.05,69.9,20.26,98,4.54,72,1604368331
bolobo,CD,-2.17,16.23,71.35,94,1.07,100,1604368331
morro bay,US,35.37,-120.85,61.0,79,0.83,0,1604368333
lowestoft,GB,52.48,1.75,45.0,92,1.01,0,1604368334
nouakchott,MR,18.09,-15.98,80.6,18,8.05,100,1604368080
loiza,PR,18.43,-65.88,82.4,69,4.7,40,1604368335
eucaliptus,BO,-17.58,-67.52,49.82,55,6.04,44,1604368335
ofunato,JP,39.07,141.72,53.6,87,1.12,75,1604368336
erzin,TR,36.96,36.2,59.0,100,4.7,40,1604368337
ornskoldsvik,SE,63.29,18.72,35.6,100,3.36,67,1604368337
kavieng,PG,-2.57,150.8,85.68,67,0.2,9,1604368925
leningradskiy,RU,69.38,178.42,16.48,91,20.76,100,1604368338
tabou,CI,4.42,-7.35,77.67,87,4.03,0,1604368339
southbridge,US,42.08,-72.03,35.01,49,11.48,51,1604368215
maceio,BR,-9.67,-35.74,77.0,88,4.7,0,1604368928
kuytun,RU,54.34,101.5,28.53,97,4.65,100,1604368340
ramhormoz,IR,31.28,49.6,59.16,53,1.19,0,1604368341
uribia,CO,11.71,-72.27,81.25,78,7.36,99,1604368342
ponta do sol,PT,32.67,-17.1,69.8,73,16.11,75,1604368930
manzhouli,CN,49.6,117.43,18.48,79,16.6,0,1604368343
lorengau,PG,-2.02,147.27,87.12,63,1.63,21,1604368343
koceljeva,RS,44.47,19.81,60.01,82,1.12,100,1604368344
santa cruz,BO,-17.8,-63.17,75.2,50,9.17,20,1604368336
izumo,JP,35.37,132.77,59.0,82,5.82,20,1604368345
northam,GB,51.03,-4.22,46.0,92,1.99,100,1604368933
vanimo,PG,-2.67,141.3,89.33,58,6.85,91,1604368934
gilbues,BR,-9.83,-45.34,70.34,88,2.42,79,1604368347
ancud,CL,-41.87,-73.82,53.01,93,3.36,75,1604368343
egvekinot,RU,66.32,-179.17,13.37,93,1.74,100,1604368891
agadez,NE,19.75,10.25,66.06,27,9.98,0,1604368348
souris,CA,49.62,-100.26,53.01,53,14.99,75,1604368349
ahipara,NZ,-35.17,173.17,70.25,68,13.2,100,1604368911
havre,FR,49.58,0.33,50.0,81,12.75,0,1604368350
iracoubo,GF,5.48,-53.2,77.38,88,8.52,94,1604368351
haines junction,CA,60.75,-137.51,5.0,60,8.05,100,1604368351
barcelona,ES,41.39,2.16,64.99,82,1.12,75,1604368352
klaksvik,FO,62.23,-6.59,44.6,75,20.8,0,1604368940
shetpe,KZ,44.17,52.12,53.64,38,6.6,100,1604368353
taltal,CL,-25.4,-70.48,59.25,60,4.97,7,1604368344
biryusinsk,RU,55.96,97.82,29.79,95,8.39,95,1604368354
mariental,NA,-24.63,17.97,64.02,62,8.19,0,1604368355
clarence town,AU,-32.58,151.78,75.0,60,16.11,75,1604368355
sao geraldo do araguaia,BR,-6.4,-48.55,75.15,86,3.98,64,1604368356
griffith,US,41.53,-87.42,45.0,45,11.41,1,1604368134
paamiut,GL,61.99,-49.67,34.03,86,26.28,100,1604368944
nago,JP,26.59,127.98,77.0,69,21.92,75,1604368358
porto santo,PT,33.07,-16.34,69.8,77,8.05,40,1604368358
half moon bay,US,37.46,-122.43,69.8,93,6.87,1,1604368940
nioro,GM,13.35,-15.75,76.68,52,4.09,20,1604368359
kudahuvadhoo,MV,2.67,72.89,82.29,71,9.17,100,1604368360
arys,KZ,42.43,68.8,41.0,27,6.71,0,1604368361
myre,NO,69.1,15.95,46.4,87,23.04,100,1604368361
dabat,ET,12.98,37.77,51.91,66,4.94,0,1604368362
makamba,BI,-4.13,29.8,65.89,69,3.8,100,1604368362
ketchikan,US,55.34,-131.65,48.2,93,5.82,90,1604368800
rajapur,IN,25.38,81.15,67.5,29,5.95,0,1604368363
nome,US,64.5,-165.41,23.0,79,3.36,90,1604368935
calabozo,VE,8.92,-67.43,75.42,89,5.14,65,1604368365
krugersdorp,ZA,-26.09,27.78,57.99,84,7.34,92,1604368365
khandyga,RU,62.67,135.6,-6.16,84,3.49,0,1604368366
north battleford,CA,52.78,-108.28,39.2,69,6.93,1,1604368366
gat,IL,31.61,34.76,66.99,92,2.53,1,1604368367
santo tomas,PH,14.11,121.14,89.01,74,5.82,20,1604368954
rio grande,BR,-32.03,-52.1,60.01,92,3.0,1,1604368812
santa marta,CO,11.24,-74.2,84.0,71,3.0,94,1604368296
beni,CD,0.5,29.47,60.73,99,3.0,95,1604368369
bangassou,CF,4.74,22.82,69.21,97,1.03,100,1604368370
north bend,US,43.41,-124.22,53.01,100,5.82,90,1604368370
huejuquilla el alto,MX,22.6,-103.87,57.74,37,10.83,0,1604368371
lata,PT,40.16,-8.33,57.99,85,4.0,84,1604368899
kemijarvi,FI,66.71,27.43,46.04,89,11.7,98,1604368372
pelym,RU,61.01,62.0,25.03,96,4.56,19,1604368373
neyshabur,IR,36.21,58.8,53.13,41,2.06,16,1604368373
sape,BR,-7.1,-35.23,78.8,83,6.93,20,1604368374
guaruja,BR,-23.99,-46.26,57.2,71,9.17,40,1604368374
high rock,BS,26.62,-78.28,72.82,72,30.11,0,1604368375
caninde,BR,-4.36,-39.31,77.63,74,1.68,100,1604368376
artyom,AZ,40.47,50.33,50.0,100,10.29,75,1604368376
petropavlovsk-kamchatskiy,RU,53.05,158.65,42.8,87,11.18,75,1604368377
burnie,AU,-41.07,145.92,70.0,57,5.01,85,1604368377
troitsko-pechorsk,RU,62.71,56.2,23.81,97,6.78,49,1604368378
muncar,ID,-8.43,114.33,86.76,58,1.59,69,1604368965
cabedelo,BR,-6.98,-34.83,78.8,83,6.93,20,1604368379
umm kaddadah,SD,13.6,26.69,77.52,27,24.72,0,1604368966
ushtobe,KZ,45.25,77.98,37.17,75,1.12,0,1604368380
xining,CN,36.62,101.77,38.34,65,1.81,100,1604368838
aykhal,RU,66.0,111.5,6.8,84,6.71,90,1604368381
saint-francois,FR,46.42,3.91,53.6,81,6.93,90,1604368382
sokoto,NG,13.06,5.24,77.83,28,9.44,72,1604368382
storslett,NO,69.77,21.02,41.88,80,9.1,100,1604368383
marang,MY,5.21,103.21,78.8,94,2.24,40,1604368384
bantry,IE,51.68,-9.45,39.2,86,9.17,40,1604368384
yellandu,IN,17.6,80.33,73.62,83,3.4,11,1604368385
pimenta bueno,BR,-11.67,-61.19,74.55,86,1.77,86,1604368385
comodoro rivadavia,AR,-45.87,-67.5,59.0,82,3.36,100,1604368198
murgab,TM,37.5,61.97,50.0,43,7.47,38,1604368205
oyama,JP,36.3,139.8,66.99,60,1.01,64,1604368387
praia,CV,14.92,-23.51,78.8,54,10.29,0,1604368834
totskoye,RU,52.52,52.76,39.02,75,8.1,4,1604368388
christchurch,NZ,-43.53,172.63,55.4,76,24.16,100,1604368379
yichang,CN,30.71,111.28,62.01,57,0.38,82,1604368389
evensk,RU,61.95,159.23,27.66,97,5.79,100,1604368976
kazanskoye,RU,55.64,69.23,28.04,96,7.99,41,1604368390
opuwo,NA,-18.06,13.84,64.0,29,4.05,0,1604368391
general pico,AR,-35.66,-63.76,61.88,64,9.93,83,1604368391
jijiga,ET,9.35,42.8,55.0,38,4.05,0,1604368392
smirnykh,RU,49.75,142.83,37.53,75,6.89,61,1604368393
mwanza,TZ,-2.52,32.9,74.03,59,9.84,59,1604368393
kaohsiung,TW,22.62,120.31,82.4,58,6.93,40,1604368326
summerland,CA,49.6,-119.67,51.8,61,4.7,100,1604368394
buin,CL,-33.73,-70.75,66.99,63,12.75,0,1604368395
bambanglipuro,ID,-7.95,110.28,84.0,67,4.68,11,1604368981
agapia,RO,47.17,26.28,48.0,100,3.42,100,1604368396
lillooet,CA,50.69,-121.94,53.6,54,3.15,20,1604368397
padang,ID,-0.95,100.35,82.47,66,1.45,99,1604368947
laguna,US,38.42,-121.42,77.0,37,4.14,1,1604368984
olavarria,AR,-36.89,-60.32,57.4,75,7.96,3,1604368398
yumen,CN,40.28,97.2,43.83,50,12.48,88,1604368985
fairlie,GB,55.76,-4.86,42.8,93,16.11,100,1604368399
mehran,IR,33.12,46.16,57.2,30,4.7,75,1604368400
mehamn,NO,71.04,27.85,42.31,85,19.06,74,1604368400
shingu,JP,33.73,135.98,64.4,52,16.11,20,1604368401
dingli,MT,35.86,14.38,64.0,87,3.36,40,1604368402
el campo,US,29.2,-96.27,61.0,47,3.36,1,1604368402
college,US,64.86,-147.8,-11.0,76,1.77,20,1604368989
sigulda,LV,57.15,24.86,46.99,97,3.0,100,1604368403
lasa,IT,46.62,10.7,42.8,100,4.7,40,1604368990
havre-saint-pierre,CA,50.23,-63.6,33.8,89,18.34,90,1604368990
tamiahua,MX,21.27,-97.45,70.29,85,10.78,100,1604368405
cururupu,BR,-1.83,-44.87,76.41,89,3.53,8,1604368405
chifeng,CN,42.27,118.96,31.24,61,14.5,0,1604368281
sai buri,TH,6.7,101.62,78.8,83,5.82,20,1604368407
landau,DE,49.21,8.11,57.99,85,1.99,100,1604368407
turukhansk,RU,65.82,87.98,15.85,97,9.93,100,1604368408
black diamond,US,47.31,-122.0,57.0,85,3.24,99,1604368408
valer,NO,60.68,11.83,44.6,81,10.29,0,1604368409
waipawa,NZ,-41.41,175.52,55.99,93,10.29,100,1604368409
malanje,AO,-9.54,16.34,64.09,99,3.27,70,1604368410
chernyshevskiy,RU,63.01,112.47,17.55,97,7.87,100,1604368410
paracuru,BR,-3.41,-39.03,81.0,77,15.99,0,1604368411
puerto leguizamo,CO,-0.19,-74.78,75.0,91,1.95,100,1604368412
kismayo,SO,-0.36,42.55,78.98,80,9.95,100,1604368412
kraskino,RU,42.71,130.78,36.88,66,19.73,89,1604368413
marawi,PH,8.0,124.29,84.99,65,5.01,100,1604368999
inirida,CO,3.87,-67.92,74.88,93,2.26,95,1604368414
burns lake,CA,54.23,-125.75,51.8,62,8.05,98,1604368414
hay river,CA,60.82,-115.8,17.6,85,10.29,95,1604368415
viedma,AR,-40.81,-63.0,66.99,54,3.0,100,1604368774
naze,JP,28.37,129.48,73.4,60,21.92,75,1604368844
koumac,NC,-20.57,164.28,80.35,66,4.23,100,1604368417
vila franca do campo,PT,37.72,-25.43,60.8,72,13.87,75,1604369003
cananea,MX,30.95,-110.3,64.0,29,3.96,49,1604368327
millinocket,US,45.66,-68.71,28.4,50,14.99,40,1604368418
sakaiminato,JP,35.55,133.23,59.0,82,8.05,40,1604368419
hengshui,CN,37.73,115.7,50.45,35,6.15,0,1604368419
albury,AU,-36.08,146.92,77.0,53,3.36,31,1604368127
narsaq,GL,60.92,-46.05,26.6,53,3.36,96,1604368905
tazovskiy,RU,67.47,78.7,15.26,97,9.84,91,1604368421
derzhavinsk,KZ,51.1,66.32,31.03,96,7.99,1,1604368422
placido de castro,BR,-10.34,-67.19,73.62,67,0.74,87,1604368422
palampur,IN,32.12,76.53,56.34,36,4.56,0,1604368423
luderitz,NA,-26.65,15.16,60.35,83,7.0,14,1604369010
richards bay,ZA,-28.78,32.04,67.6,92,8.97,2,1604368897
ranong,TH,9.97,98.63,77.0,100,3.8,40,1604368425
coolum beach,AU,-26.53,153.1,77.0,60,5.01,31,1604368425
surgana,IN,20.57,73.62,69.35,57,4.65,12,1604368426
bereda,ES,43.27,-7.54,46.0,100,1.99,7,1604368977
